{"data":{ "1100" : [
    {"name":"강남소방서", "addr":"서울특별시 강남구 테헤란로 629(삼성동)", "tel":"02-6981-7575", "lat": 37.510649, "lng": 127.066889},
    {"name":"강북소방서", "addr":"서울특별시 강북구 한천로 911(번동)", "tel":"02-6946-0200", "lat": 37.633177, "lng":127.038174},
    {"name":"양천소방서", "addr":"서울특별시 양천구 목동서로 180(목동)", "tel":"02-2655-1119", "lat": 37.530316, "lng":126.872254},

    {"addr": "서울특별시 관악구 관악로 97(봉천동)", "lat": 37.473879, "lng": 126.9523635, "name": "관악소방서", "tel": "02-6981-8310"},
{"addr": "서울특별시 강동구 성내로 39(성내동)", "lat": 37.5292364, "lng": 127.1249563, "name": "강동소방서", "tel": "02-470-0119"},
{"addr": "서울특별시 강서구 양천로 550(등촌동)", "lat": 37.5579782, "lng": 126.8602313, "name": "강서소방서", "tel": "02-3663-0119"},
{"addr": "서울특별시 구로구 경인로 408(고척동)", "lat": 37.4978394, "lng": 126.8654138, "name": "구로소방서", "tel": "02-2618-0119"},
{"addr": "서울특별시 노원구 한글비석로 1길 8(하계동)", "lat": 37.63811159999999, "lng": 127.0710884, "name": "노원소방서", "tel": "02-6981-6910"},
{"addr": "서울특별시 광진구 광나루로 480(구의동)", "lat": 37.5448236, "lng": 127.0828901, "name": "광진소방서", "tel": "02-457-0119"},
{"addr": "서울특별시 도봉구 도봉로 666(방학동)", "lat": 37.6639446, "lng": 127.0429253, "name": "도봉소방서", "tel": "02-6981-8119"},
{"addr": "서울특별시 동대문구 장한로 34(장안동)", "lat": 37.5639534, "lng": 127.0666554, "name": "동대문소방서", "tel": "02-6942-1310"},
{"addr": "서울특별시 마포구 창전로 76(신수동)", "lat": 37.5493417, "lng": 126.9331966, "name": "마포소방서", "tel": "02-6981-7910"},
{"addr": "서울특별시 동작구 여의대방로16길 55(신대방동)", "lat": 37.4946556, "lng": 126.9176657, "name": "동작소방서", "tel": "02-847-1190"},
{"addr": "서울특별시 서대문구 연희로 182(연희동)", "lat": 37.5731167, "lng": 126.9362526, "name": "서대문소방서", "tel": "02-6981-5510"},
{"addr": "서울특별시 성동구 살곶이길 331(행당동)", "lat": 37.5538549, "lng": 127.0395466, "name": "성동소방서", "tel": "02-2622-1711"},
{"addr": "서울특별시 서초구 사평대로 67(반포동)", "lat": 37.4984469, "lng": 126.992009, "name": "서초소방서", "tel": "02-537-0119"},
{"addr": "서울특별시 송파구 오금로51길 56(마천동)", "lat": 37.4997988, "lng": 127.1425822, "name": "송파소방서", "tel": "02-403-2119"},
{"addr": "서울특별시 성북구 종암로 27길 3(종암동)", "lat": 37.6024407, "lng": 127.0317753, "name": "성북소방서", "tel": "02-6981-7310"},
{"addr": "서울특별시 용산구 한강대로 167(한강로2가)", "lat": 37.5340794, "lng": 126.9715034, "name": "용산소방서", "tel": "02-794-0119"},
{"addr": "서울특별시 영등포구 문래로 197(영등포동4가)", "lat": 37.5184005, "lng": 126.9041725, "name": "영등포소방서", "tel": "02-6981-7119"},
{"addr": "서울특별시 은평구 통일로 962(진관동)", "lat": 37.6286651, "lng": 126.9197512, "name": "은평소방서", "tel": "02-355-0119"},
{"addr": "서울특별시 중구 퇴계로 394(무학동)", "lat": 37.5648219, "lng": 127.0153596, "name": "중부소방서", "tel": "02-2234-0119"},
{"addr": "서울특별시 종로구 종로1길 28(수송동)", "lat": 37.5728118, "lng": 126.9788859, "name": "종로소방서", "tel": "02-735-6119"},
{"addr": "서울특별시 중랑구 신내로 183(신내동)", "lat": 37.6152907, "lng": 127.0949175, "name": "중랑소방서", "tel": "02-6981-8920"}
], "1200" : [
    {"name":"북부소방서", "addr":"부산광역시 사상구 삼덕로 17(삼락동)", "tel":"051-760-4400", "lat": 35.267311, "lng":129.017809},
    {"addr": "부산광역시 강서구 녹산산단361로 9(송정동)", "lat": 37.5579782, "lng": 126.8602313, "name": "강서소방서", "tel": "051-760-5000"},
    {"addr": "부산광역시 동구 범일로 115(범일동)", "lat": 35.1652494, "lng": 129.0430314, "name": "부산진소방서", "tel": "051-760-4200"},
    {"addr": "부산광역시 기장군 정관면 용수로 7", "lat": 35.297975, "lng": 129.2009199, "name": "기장소방서", "tel": "051-760-5100"},
    {"addr": "부산광역시 금정구 중앙대로 1789(부곡동)", "lat": 35.2440195, "lng": 129.0928604, "name": "금정소방서", "tel": "051-760-4700"},
    {"addr": "부산광역시 사하구 장평로 270(신평동)", "lat": 35.0900355, "lng": 128.9734591, "name": "사하소방서", "tel": "051-760-4500"},
    {"addr": "부산광역시 연제구 고분로 216(연산동)", "lat": 35.1846101, "lng": 129.1051942, "name": "동래소방서", "tel": "051-760-4300"},
    {"addr": "부산광역시 영도구 해양로 297(동삼동)", "lat": 35.0817328, "lng": 129.0766997, "name": "항만소방서", "tel": "051-760-4900"},
    {"addr": "부산광역시 수영구 광일로 64(광안동)", "lat": 35.1631164, "lng": 129.10718, "name": "남부소방서", "tel": "051-760-4800"},
    {"addr": "부산광역시 해운대구 해운대해변로 106(우동)", "lat": 35.1596415, "lng": 129.1437468, "name": "해운대소방 서", "tel": "051-760-4600"},
    {"addr": "부산광역시 중구 충장대로 6(중앙동4가)", "lat": 37.5648219, "lng": 127.0153596, "name": "중부소방서", "tel": "051-760-4100"}

], "2200":[

    {"name":"동부소방서", "addr":"대구광역시 동구 동대구로 507", "tel":"053-601-4317", "lat": 35.876165, "lng":128.625308},
    {"name":"북부소방서", "addr":"대구광역시 북구 칠성남로 112", "tel":"053-350-4700", "lat": 35.878119, "lng":128.592270},
    {"name":"서부소방서", "addr":"대구광역시 서구 달서천로 186", "tel":"053-320-4499", "lat": 35.881944, "lng":128.554378},
    {"name":"수성소방서", "addr":"대구광역시 수성구 청호로 87", "tel":"053-780-5213", "lat": 35.825557, "lng":128.644275},

    {"addr": "대구광역시 달서구 학산로 75", "lat": 35.8310506, "lng": 128.5347298, "name": "달서소방서", "tel": "053-607-2216"},
{"addr": "대구광역시 달성군 다사읍 달구벌대로 920", "lat": 37.5579782, "lng": 126.8602313, "name": "강서소방서", "tel": "053-601-4600"},
{"addr": "대구광역시 달성군 현풍읍 비슬로 480", "lat": 35.6825307, "lng": 128.4470113, "name": "달성소방서", "tel": "053-670-5200"},
{"addr": "대구광역시 중구 달구벌대로 1926", "lat": 37.5648219, "lng": 127.0153596, "name": "중부소방서", "tel": "053-601-4517"}

],"2400":[
    {"addr": "광주광역시 남구 송암로58번길 13(송하동)", "lat": 35.1631164, "lng": 129.10718, "name": "남부소방서", "tel": "062-613-8613"},
	{"addr": "광주광역시 광산구 하남산단1번로 13(하남동)", "lat": 35.18588829999999, "lng": 126.7967042, "name": "광산소방서", "tel": "062-613-8813"},
    {"addr": "광주광역시 광산구 하남산단1번로 13(하남동)", "lat": 35.18588829999999, "lng": 126.7967042, "name": "광산소방서", "tel": "062-613-8813"},
    {"addr": "광주광역시 남구 송암로58번길 13(송하동)", "lat": 35.1631164, "lng": 129.10718, "name": "남부소방서", "tel": "062-613-8613"}

],"2300":[

   
    {"name":"서부소방서", "addr":"인천광역시  서구 서곶로 292(심곡동)", "tel":"032-723-5440", "lat": 37.543368, "lng":126.677212},
    {"name":"송도소방서", "addr":"인천광역시  연수구 첨단대로60번길 15(송도동)", "tel":"032-810-6609", "lat": 37.367445, "lng":126.651355},
    {"name":"영종소방서", "addr":"인천광역시  중구 중구 제2터미널대로 268(운서동)", "tel":"032-727-6110", "lat": 37.481485, "lng":126.398542},

    {"addr": "인천광역시  강화군 강화읍 남문로 23번길 11", "lat": 37.7394812, "lng": 126.4872577, "name": "강화소방서", "tel": "032-930-5811"},
{"addr": "인천광역시  계양구 장제로 774(계산동)", "lat": 37.5370619, "lng": 126.7347997, "name": "계양소방서", "tel": "032-650-5611"},
{"addr": "인천광역시  남동구 인주대로 714(구월동)", "lat": 37.44890729999999, "lng": 126.7166111, "name": "남동소 방서", "tel": "032-870-5210"},
{"addr": "인천광역시  남구 인하로 190(주안동)", "lat": 37.4484049, "lng": 126.6688641, "name": "미추홀소방서", "tel": "032-870-3216"},
{"addr": "인천광역시  남동구 남동서로 208(고잔동)", "lat": 37.4081106, "lng": 126.6930497, "name": "공단소방서", "tel": "032-723-5512"},
{"addr": "인천광역시  부평구 부평대로 324(갈산동)", "lat": 37.5201921, "lng": 126.722126, "name": "부평소방서", "tel": "032-723-5310"},
{"addr": "인천광역시  중구 인중로 204(항동)", "lat": 37.5648219, "lng": 127.0153596, "name": "중부소방서", "tel": "032-870-5115"}

],"2500":[

    {"name":"동부소방서", "addr":"대전광역시 동구 계족로 300", "tel":"042-270-1314", "lat": 36.339086, "lng":127.437557},
    {"name":"서부소방서", "addr":"대전광역시 서구 북부서로 67", "tel":"042-270-1713", "lat": 36.309452, "lng":127.372373},

    {"addr": "대전광역시 대덕구 계족로 682", "lat": 36.412277, "lng": 127.4401042, "name": "대덕소방서", "tel": "042-270-1514"},
    {"addr": "대전광역시 서구 갈마중로 15", "lat": 36.3557875, "lng": 127.3890025, "name": "둔산소방서", "tel": "042-270-1413"},
    {"addr": "대전광역시 유성구 대덕대로 516", "lat": 36.3788251, "lng": 127.3790192, "name": "유성소방서", "tel": "042-270-1613"}

],"2600":[
    {"name":"동부소방서", "addr":"울산광역시 동구 꽃바위2가길 9", "tel":"052-279-6320", "lat": 35.482627, "lng":129.412567},
    {"name":"북부소방서", "addr":"울산광역시 북구 화동로 178", "tel":"052-229-8001", "lat": 35.606804, "lng":129.370068},
    {"name":"온산소방서", "addr":"울산광역시 울주군 온산읍 덕신로 232", "tel":"052-241-6620", "lat": 35.433242, "lng":129.306621},
    {"addr": "울산광역시 중구 종가로 205", "lat": 37.5648219, "lng": 127.0153596, "name": "중부소방서", "tel": "052-210-4423"},
    {"addr": "울산광역시 남구 삼산중로 149", "lat": 35.1631164, "lng": 129.10718, "name": "남부소방서", "tel": "052-210-4720"}
],"2700":[
{"addr": "세종특별자치시 절재로 301(어진동)", "lat": 36.5062351, "lng": 127.2742638, "name": "세종소방서", "tel": "044-300-6119"},
{"addr": "세종특별자치시 조치원읍 세종로 2439", "lat": 36.6047758, "lng": 127.2888985, "name": "조치원소방서", "tel": "044-300-8119"}
],"1300":[
    {"name":"수원남부소방서", "addr":"경기도 수원시 권선구 동수원로 286 (권선동)", "tel":"031-6398324", "lat": 37.297218, "lng":126.995941},


    {"addr": "경기도 가평군 가평읍 가화로36", "lat": 37.8231521, "lng": 127.5162707, "name": "가평소방서", "tel": "031-580-0212"},
{"addr": "경기도 고양시 덕양구 고양대로 1342", "lat": 37.6550141, "lng": 126.8332382, "name": "고양소방서", "tel": "031-931-0212"},
{"addr": "경기도 과천시 통영로 12", "lat": 37.4285797, "lng": 126.9903889, "name": "과천소방서", "tel": "02-331-4212"},
{"addr": "경기도 광명시 금하로 472", "lat": 37.4735165, "lng": 126.8710659, "name": "광명소방서", "tel": "02-2610-3213"},
{"addr": "경기도 고양시 일산동구 중앙로 1325", "lat": 37.6630251, "lng": 126.7695913, "name": "일산소방서", "tel": "031-930-0212"},
{"addr": "경기도 광주시 초월읍 무들로 112", "lat": 37.38556519999999, "lng": 127.2994595, "name": "광주소방서", "tel": "031-799-2212"},
{"addr": "경기도 구리시 아차산로 487번길 46", "lat": 37.5982565, "lng": 127.127819, "name": "구리소방서", "tel": "031-570-6214"},
{"addr": "경기도 남양주시 평내로 25", "lat": 37.6433633, "lng": 127.2322203, "name": "남양주소방서", "tel": "031-590-0212"},
{"addr": "경기도 김포시 감암로 111", "lat": 37.6415764, "lng": 126.7085493, "name": "김포소방서", "tel": "031-980-4212"},
{"addr": "경기도 군포시 고산로 429", "lat": 37.35256, "lng": 126.9270638, "name": "군포소방서", "tel": "031-479-8212"},
{"addr": "경기도 부천시 원미구 신흥로 115", "lat": 37.4940535, "lng": 126.77811, "name": "부천소방서", "tel": "031-650-4214"},
{"addr": "경기도 동두천시 지행로 6(지행동)", "lat": 37.8921906, "lng": 127.0475923, "name": "동두천소방서", "tel": "031-830-5504"},
{"addr": "경기도 수원시 장안구 정자천로 189번길 12", "lat": 37.2803896, "lng": 127.0077847, "name": "수원소방서", "tel": "031-8012-9212"},
{"addr": "경기도 성남시 분당구 양현로 14", "lat": 37.38599749999999, "lng": 127.1194745, "name": "분당소방서", "tel": "031-8018-3212"},
{"addr": "경기도 성남시 수정구 제일로 111", "lat": 37.4366368, "lng": 127.1335136, "name": "성남소방서", "tel": "031-720-0212"},
{"addr": "경기도 시흥시 정왕신길로 206 (정왕동)", "lat": 37.3495015, "lng": 126.7395822, "name": "시흥소방서", "tel": "031-310-0212"},
{"addr": "경기도 안산시 단원구 화랑로 407", "lat": 37.32162280000001, "lng": 126.8333289, "name": "안산소방서", "tel": "031-470-7212"},
{"addr": "경기도 안양시 동안구 동안로 82", "lat": 37.3958772, "lng": 126.9606294, "name": "안양소방서", "tel": "031-470-0212"},
{"addr": "경기도 안성시 미양로 855", "lat": 37.0004265, "lng": 127.2558228, "name": "안성소방서", "tel": "031-678-4212"},
{"addr": "경기도 양평군 양평읍 경강로 2047", "lat": 37.5003303, "lng": 127.5073088, "name": "양평소방서", "tel": "031-770-0212"},
{"addr": "경기도 양주시 백석읍 꿈나무로 156", "lat": 37.79578470000001, "lng": 126.9895452, "name": "양주소방서", "tel": "031-849-8212"},
{"addr": "경기도 오산시 청학로 67", "lat": 37.1755995, "lng": 127.0538515, "name": "오산소방서", "tel": "031-8059-7212"},
{"addr": "경기도 여주시 우암로 110", "lat": 37.291526, "lng": 127.6258811, "name": "여주소방서", "tel": "031-887-7214"},
{"addr": "경기도 연천군 전곡읍 평화로 892", "lat": 38.0484702, "lng": 127.0689781, "name": "연천소방서", "tel": "031-830-0212"},
{"addr": "경기도 의왕시 오봉로 9", "lat": 37.3441452, "lng": 126.9748094, "name": "의왕소방서", "tel": "031-596-0214"},
{"addr": "경기도 용인시 처인구 명지로 45", "lat": 37.23229389999999, "lng": 127.1900192, "name": "용인소방서", "tel": "031-8021-0212"},
{"addr": "경기도 이천시 경충대로 2739", "lat": 37.28205, "lng": 127.431545, "name": "이천소방서", "tel": "031-645-5212"},
{"addr": "경기도 의정부시 의정로 48", "lat": 37.7370009, "lng": 127.035432, "name": "의정부소방서", "tel": "031-849-7212"},
{"addr": "경기도 파주시 파주읍 통일로1564", "lat": 37.84768589999999, "lng": 126.789842, "name": "파주소방서", "tel": "031-956-9212"},
{"addr": "경기도 평택시 남부문예회관앞길 11", "lat": 36.99042, "lng": 127.1128274, "name": "평택소방서", "tel": "031-8053-6212"},
{"addr": "경기도 평택시 경기대로 1637", "lat": 37.08964450000001, "lng": 127.0623655, "name": "송탄소방서", "tel": "031-685-8212"},
{"addr": "경기도 포천시 군내면 호국로 1538", "lat": 37.8914328, "lng": 127.2027888, "name": "포천소방서", "tel": "031-538-5212"},
{"addr": "경기도 하남시 대청로 76 (신장동)", "lat": 37.5398622, "lng": 127.2204166, "name": "하남소방서", "tel": "031-799-4212"},
{"addr": "경기도 화성시 향남읍 향남로 399", "lat": 37.13057939999999, "lng": 126.92055, "name": "화성소방서", "tel": "031-8012-6212"}
],"1400":[
    
    {"name":"인제소방서", "addr":"강원도 인제군 인제읍 비봉로 44번길 71", "tel":"033-460-9211" , "lat": 38.222538, "lng":128.207609},

    {"addr": "강원도 강릉시 선수촌로 64-28(홍제동)", "lat": 37.7573642, "lng": 128.872912, "name": "강릉소방서", "tel": "033-643-3119"},
{"addr": "강원도 고성군 간성읍 수성로 37-11", "lat": 34.9809366, "lng": 128.3311876, "name": "고성소방서", "tel": "033-681-1119"},
{"addr": "강원도 속초시 미시령로 3226", "lat": 38.2037532, "lng": 128.5601273, "name": "속초소방서", "tel": "033-636-2119"},
{"addr": "강원도 삼척시 봉황로 101", "lat": 37.4465928, "lng": 129.1709751, "name": "삼척소방서", "tel": "033-572-9119"},
{"addr": "강원도 동해시 천곡로 120", "lat": 37.5244612, "lng": 129.1184599, "name": "동해소방서", "tel": "033-533-2119"},
{"addr": "강원도 양양군 양양읍 남대천로 33", "lat": 38.0677062, "lng": 128.6222531, "name": "양양소방서", "tel": "033-671-0119"},
{"addr": "강원도 양구군 양구읍 중심로 92", "lat": 38.1011589, "lng": 127.9927313, "name": "양구소방서", "tel": "033-482-0119"},
{"addr": "강원도 원주시 동부순환로 201", "lat": 37.3283315, "lng": 127.9443825, "name": "원주소방서", "tel": "033-763-4119"},
{"addr": "강원도 영월군 영월읍 영월로 1863", "lat": 37.1851998, "lng": 128.4583934, "name": "영월소방서", "tel": "033-373-1119"},
{"addr": "강원도 철원군 갈말읍 태봉로 1504", "lat": 38.1856874, "lng": 127.3234456, "name": "철원소방서", "tel": "033-452-7119"},
{"addr": "강원도 정선군 정선읍 녹송로 27", "lat": 37.3796047, "lng": 128.6720936, "name": "정선소방서", "tel": "033-563-0119"},
{"addr": "강원도 춘천시 후석로 446", "lat": 37.8893875, "lng": 127.7431876, "name": "춘천소방서", "tel": "033-241-0119"},
{"addr": "강원도 태백시 태백로 1120", "lat": 37.1585664, "lng": 128.9892592, "name": "태백소방서", "tel": "033-553-1119"},
{"addr": "강원도 평창군 평창읍 살구실길 10", "lat": 37.3780095, "lng": 128.3899712, "name": "평창소방서", "tel": "033-339-9118"},
{"addr": "강원도 홍천군 홍천읍 공작산로 99", "lat": 37.691451, "lng": 127.902408, "name": "홍천소방서", "tel": "033-432-3119"},
{"addr": "강원도 횡성군 횡성읍 문예로 157", "lat": 37.4853526, "lng": 127.9739346, "name": "횡성소방서", "tel": "033-343-0119"},
{"addr": "강원도 화천군 위라리길 47", "lat": 38.0978884, "lng": 127.7133405, "name": "화천소방서", "tel": "033-442-1119"}

],"1500":[
    {"name":"괴산소방서", "addr":"충청북도 괴산군 괴산읍 괴강로 69", "tel":"043-760-0113", "lat": 36.807243, "lng":127.801729},
    {"name":"보은소방서", "addr":"충청북도 보은군 보은읍 남부로 4415", "tel":"043-773-0113", "lat": 36.477044, "lng":127.722368},
    {"addr": "충청북도 옥천군 옥천읍 중앙로 132", "lat": 36.3071523, "lng": 127.5747833, "name": "옥천소방서", "tel": "043-730-1813"},

    {"addr": "충청북도 청주시 상당구 영운로 61", "lat": 36.6209924, "lng": 127.4949181, "name": "청주동부소방서", "tel": "043-251-0114"},
	{"addr": "충청북도 청주시 흥덕구 풍산로 64", "lat": 36.6272961, "lng": 127.4370902, "name": "청주서부소방서", "tel": "043-249-9113"},
	{"addr": "충청북도 충주시 도매시장4길 9번", "lat": 37.0032464, "lng": 127.9206901, "name": "충주소방서", "tel": "043-841-3114"},


    {"addr": "충청북도 단양군 단양읍 별곡리 산28-4", "lat": 36.989152, "lng": 128.3566697, "name": "단양소방서", "tel": "043-767-4113"},
    {"addr": "충청북도 영동군 영동읍 영동황간로 174", "lat": 36.1656206, "lng": 127.7890609, "name": "영동소방서", "tel": "043-740-7013"},
    {"addr": "충청북도 음성군 금왕읍 응천서길 11", "lat": 36.9896718, "lng": 127.5951482, "name": "음성소방서", "tel": "043-880-0113"},
    {"addr": "충청북도 제천시 신죽하로 2164", "lat": 37.1607568, "lng": 128.2126828, "name": "제천소방서", "tel": "043-641-7113"},
    {"addr": "충청북도 증평군 충청대로 1789", "lat": 36.7878349, "lng": 127.5838216, "name": "증평소방서", "tel": "043-830-0113"},
    {"addr": "충청북도 진천군 진천읍 진광로 93", "lat": 36.8726877, "lng": 127.4410571, "name": "진천소방서", "tel": "043-539-8113"},
    {"addr": "충청북도 청주시 상당구 영운로 61", "lat": 36.6209924, "lng": 127.4949181, "name": "청주동부소방서", "tel": "043-251-0114"},
    {"addr": "충청북도 청주시 흥덕구 풍산로 64", "lat": 36.6272961, "lng": 127.4370902, "name": "청주서부소방서", "tel": "043-249-9113"},
    {"addr": "충청북도 충주시 도매시장4길 9번", "lat": 37.0032464, "lng": 127.9206901, "name": "충주소방서", "tel": "043-841-3114"}
],"1600":[

    {"addr": "충청남도 천안시 서북구 직산읍 4산단 2길 32", "lat": 36.8626391, "lng": 127.1161567, "name": "천안서북소 방서", "tel": "041-360-0212"},
    {"addr": "충청남도 태안군 태안읍 동백로 100", "lat": 36.7579061, "lng": 126.2861455, "name": "태안소방서", "tel": "041-671-0212"},

    {"addr": "충청남도 계룡시 두마면 사계로 46", "lat": 36.2741083, "lng": 127.2324878, "name": "계룡소방서", "tel": "041-540-5212"},
{"addr": "충청남도 공주시 무령로 55", "lat": 36.4598407, "lng": 127.1073244, "name": "공주소방서", "tel": "041-851-0212"},
{"addr": "충청남도 논산시 대학로 17", "lat": 36.1782332, "lng": 127.1004124, "name": "논산소방서", "tel": "041-730-0212"},
{"addr": "충청남도 금산군 금산읍 삼풍로 2", "lat": 36.0998764, "lng": 127.4800446, "name": "금산소방서", "tel": "041-750-1212"},
{"addr": "충청남도 보령시 성주산로 63", "lat": 36.3330511, "lng": 126.6086224, "name": "보령소방서", "tel": "041-930-0212"},
{"addr": "충청남도 당진시 역천로 838", "lat": 36.8858892, "lng": 126.6178011, "name": "당진소방서", "tel": "041-350-5212"},
{"addr": "충청남도 서산시 호수공원14로 26-4", "lat": 36.7733243, "lng": 126.4451849, "name": "서산소방서", "tel": "041-689-0212"},
{"addr": "충청남도 부여군 규암면 계백로 17", "lat": 36.2749678, "lng": 126.8822641, "name": "부여소방서", "tel": "041-830-0212"},
{"addr": "충청남도 서천군 장항읍 장항로 37", "lat": 36.0136347, "lng": 126.6828456, "name": "서천소방서", "tel": "041-955-0212"},
{"addr": "충청남도 아산시 모종로 77", "lat": 36.7861256, "lng": 127.0258335, "name": "아산소방서", "tel": "041-538-0212"},
{"addr": "충청남도 천안시 동남구 천안대로 580", "lat": 36.8000481, "lng": 127.1650005, "name": "천안동남소방서", "tel": "041-570-0212"},
{"addr": "충청남도 예산군 오가면 오가중앙로 111", "lat": 36.6865555, "lng": 126.801872, "name": "예산소방서", "tel": "041-330-4212"},
{"addr": "충청남도 청양군 청양읍 충절로 1187", "lat": 36.4307266, "lng": 126.8529299, "name": "청양소방서", "tel": "041-940-7212"},
{"addr": "충청남도 홍성군 홍성읍 충절로 741", "lat": 36.5847967, "lng": 126.6956618, "name": "홍성소방서", "tel": "041-630-0212"}
],"1700":[

    {"addr": "전라북도 장수군 장계면 육십령로 136", "lat": 35.7323076, "lng": 127.5896211, "name": "무진장소방서", "tel": "063-350-6251"},

    {"addr": "전라북도 고창군 고창읍 녹두로 1294", "lat": 35.4327878, "lng": 126.6877488, "name": "고창소방서", "tel": "063-560-1251"},
{"addr": "전라북도 군산시 번영로 308", "lat": 35.9628283, "lng": 126.7510771, "name": "군산소방서", "tel": "063-450-0251"},
{"addr": "전라북도 김제시 벽성로 278", "lat": 35.7989137, "lng": 126.8700554, "name": "김제소방서", "tel": "063-540-4251"},
{"addr": "전라북도 남원시 요천로 1965", "lat": 35.4367428, "lng": 127.4170439, "name": "남원소방서", "tel": "063-630-8251"},
{"addr": "전라북도 부안군 행안면 변산로 86", "lat": 35.7297661, "lng": 126.7119416, "name": "부안소방서", "tel": "063-580-1251"},
{"addr": "전라북도 순창군 순창읍 교성로 24", "lat": 35.371977, "lng": 127.1338463, "name": "순창소방서", "tel": "063-653-7119"},
{"addr": "전라북도 완주군 삼례읍 삼봉로 518", "lat": 35.9264209, "lng": 127.1243333, "name": "완주소방서", "tel": "063-290-0251"},
{"addr": "전라북도 익산시 무왕로 1338", "lat": 35.9622789, "lng": 127.005248, "name": "익산소방서", "tel": "063-839-3251"},
{"addr": "전라북도 전주시 완산구 거마평로 73", "lat": 35.7992338, "lng": 127.1164882, "name": "전주완산소방서", "tel": "063-220-4251"},
{"addr": "전라북도 전주시 덕진구 백제대로 611", "lat": 35.842103, "lng": 127.1364165, "name": "전주덕진소방서", "tel": "063-250-4251"},
{"addr": "전라북도 정읍시 서부산업도로 507-5", "lat": 35.5883712, "lng": 126.8587822, "name": "정읍소방서", "tel": "063-570-1251"}

],"1800":[
    {"addr": "전라남도 강진군 군동면 중앙로 223", "lat": 34.6432386, "lng": 126.7804306, "name": "강진소방서", "tel": "061-430-0900"},
    {"addr": "전라남도 영암군 삼호읍 나불로 192", "lat": 34.7668056, "lng": 126.4392366, "name": "영암소방서", "tel": "061-460-0900"},

    {"addr": "전라남도 고흥군 풍양면 고흥로 1330", "lat": 34.5821793, "lng": 127.2563767, "name": "고흥소방서", "tel": "061-840-0900"},
{"addr": "전라남도 나주시 예향로 4201", "lat": 35.0277465, "lng": 126.7099974, "name": "나주소방서", "tel": "061-330-0900"},
{"addr": "전라남도 광양시 중마중앙로 109", "lat": 34.9400303, "lng": 127.6977491, "name": "광양소방서", "tel": "061-798-0900"},
{"addr": "전라남도 담양군 담양읍 추성로 1232", "lat": 35.3180841, "lng": 126.973169, "name": "담양소방서", "tel": "061-380-0900"},
{"addr": "전라남도 목포시 삼향천로 110", "lat": 34.8099704, "lng": 126.4302846, "name": "목포소방서", "tel": "061-280-0900"},
{"addr": "전라남도 무안군 무안읍 공항골 133-9", "lat": 34.9947188, "lng": 126.4668831, "name": "무안소방서", "tel": "061-450-0900"},
{"addr": "전라남도 보성군 벌교읍 녹색로 5247", "lat": 34.8385679, "lng": 127.3156753, "name": "보성소방서", "tel": "061-859-0900"},
{"addr": "전라남도 순천시 서면 삼산로 281", "lat": 34.9865684, "lng": 127.5038778, "name": "순천소방서", "tel": "061-750-0900"},
{"addr": "전라남도 영광군 영광읍 함영로 3508", "lat": 35.2629482, "lng": 126.5090084, "name": "영광소방서", "tel": "061-350-0900"},
{"addr": "전라남도 여수시 망마로 20", "lat": 34.760052, "lng": 127.6652621, "name": "여수소방서", "tel": "061-680-0900"},
{"addr": "전라남도 함평군 대동면 학동로386", "lat": 35.0955977, "lng": 126.5166633, "name": "함평소방서", "tel": "061-338-0900"},
{"addr": "전라남도 장성군 장성읍 단풍로 204", "lat": 35.3204125, "lng": 126.8001966, "name": "장성소방서", "tel": "061-360-0900"},
{"addr": "전라남도 장흥군 장흥읍 원도리 215", "lat": 34.6816856, "lng": 126.9069278, "name": "장흥소방서", "tel": "061-850-0900"},
{"addr": "전라남도 화순군 화순읍 학포로 2750", "lat": 35.0507548, "lng": 126.9718981, "name": "화순소방서", "tel": "061-379-0900"},
{"addr": "전라남도 해남군 해남읍 교육청길 82", "lat": 34.5662229, "lng": 126.6079165, "name": "해남소방서", "tel": "061-530-0900"}

],"1900":[
    {"addr": "경상북도 고령군 고령읍 벽화길 18", "lat": 35.723747, "lng": 128.2688848, "name": "고령소방서", "tel": "054-954-4119"},
	{"addr": "경상북도 김천시 강변로 219(양천동)", "lat": 36.1068142, "lng": 128.1227278, "name": "김천소방서", "tel": "054-436-1119"},
	{"addr": "경상북도 상주시 상산로 322", "lat": 36.419669, "lng": 128.1596029, "name": "상주소방서", "tel": "054-530-3714"},
	{"addr": "경상북도 성주군 성주읍 주산로 193", "lat": 35.9341208, "lng": 128.3047972, "name": "성주소방서", "tel": "054-933-5119"},
	{"addr": "경상북도 문경시 중앙로 305", "lat": 36.6102878, "lng": 128.2097728, "name": "문경소방서", "tel": "054-559-1813"},
	{"addr": "경상북도 영덕군 영덕읍 경동로 8401", "lat": 36.4167134, "lng": 129.3710654, "name": "영덕소방서", "tel": "054-730-1512"},
	{"addr": "경상북도 안동시 육사로 301", "lat": 36.5610389, "lng": 128.7373978, "name": "안동소방서", "tel": "054-855-8119"},
	{"addr": "경상북도 예천군 예천읍 양궁로 61-12(청복리)", "lat": 36.6480301, "lng": 128.4634092, "name": "예천소방서", "tel": "054-650-3414"},
	{"addr": "경상북도 영주시 문수면 적서로 448번길 17", "lat": 36.7917109, "lng": 128.6330707, "name": "영주소방서", "tel": "054-632-1190"},
	{"addr": "경상북도 영천시 호국로 187", "lat": 35.9777486, "lng": 128.9580925, "name": "영천소방서", "tel": "054-336-8000"},
	{"addr": "경상북도 울진군 울진읍 울진북로 508", "lat": 36.9935068, "lng": 129.3946218, "name": "울진소방서", "tel": "054-780-1312"},
	{"addr": "경상북도 의성군 봉양면 경상북도대로 4741", "lat": 36.30470529999999, "lng": 128.6097389, "name": "의성소방서", "tel": "054-830-7712"},
	{"addr": "경상북도 포항시 북구 중앙로 332", "lat": 36.0425236, "lng": 129.3660904, "name": "포항북부소방서", "tel": "054-260-2130"},
	{"addr": "경상북도 경주시 알천남로 276", "lat": 35.8441721, "lng": 129.2282122, "name": "경주소방서", "tel": "054-778-0549"},
	{"addr": "경상북도 칠곡군 기산면 칠곡대로 1216", "lat": 35.9897132, "lng": 128.3873311, "name": "칠곡소방서", "tel": "054-976-7001"},
	{"addr": "경상북도 청도군 청도읍 중앙로 192-34", "lat": 35.6483008, "lng": 128.7632782, "name": "청도소방서", "tel": "054-370-8212"},
	{"addr": "경상북도 포항시 남구 동해안로 5890", "lat": 35.9934702, "lng": 129.4186197, "name": "포항남부소방서", "tel": "054-284-4117"},
	{"addr": "경상북도 경산시 압량면 김유신로 12", "lat": 35.8383559, "lng": 128.7696623, "name": "경산소방서", "tel": "053-811-1119"}
],"2000":[

    {"addr": "경상남도 남해군 남해읍 스포츠로 81", "lat": 34.8294336, "lng": 127.8928522, "name": "남해소방서", "tel": "055-860-9212"},
	{"addr": "경상남도 하동군 금성면 금성로 15", "lat": 34.9780208, "lng": 127.7956325, "name": "하동소방서", "tel": "055-880-9212"},
{"addr": "경상남도 함양군 함양읍 고운로 161-41", "lat": 35.5237047, "lng": 127.7424295, "name": "함양소방서", "tel": "055-960-9212"},

    {"addr": "경상남도 거제시 진목로 1", "lat": 34.8961382, "lng": 128.6861837, "name": "거제소방서", "tel": "055-689-9212"},
{"addr": "경상남도 고성군 고성읍 남해안대로 2670", "lat": 34.9809366, "lng": 128.3311876, "name": "고성소방서", "tel": "055-670-9212"},
{"addr": "경상남도 김해시 김해대로 2507", "lat": 35.2284752, "lng": 128.901243, "name": "김해동부소방서", "tel": "055-320-9212"},
{"addr": "경상남도 거창군 거창읍 거함대로 3324", "lat": 35.67778819999999, "lng": 127.923324, "name": "거창소방서", "tel": "055-940-9212"},
{"addr": "경상남도 김해시 장유로 341", "lat": 35.2721355, "lng": 128.8452281, "name": "김해서부소방서", "tel": "055-344-9212"},
{"addr": "경상남도 밀양시 밀양대로 1760", "lat": 35.482846, "lng": 128.7534689, "name": "밀양소방서", "tel": "055-350-9212"},
{"addr": "경상남도 산청군 산청읍 중앙로 76-7", "lat": 35.418225, "lng": 127.88717, "name": "산청소방서", "tel": "055-970-9212"},
{"addr": "경상남도 사천시 남일로 29", "lat": 34.9330462, "lng": 128.0796919, "name": "사천소방서", "tel": "055-830-9212"},
{"addr": "경상남도 양산시 물금읍 황산로 719", "lat": 35.4018747, "lng": 129.0410269, "name": "양산소방서", "tel": "055-379-9212"},
{"addr": "경상남도 의령군 의령읍 의병로 108-17", "lat": 35.31844, "lng": 128.2669913, "name": "의령소방서", "tel": "055-570-9212"},
{"addr": "경상남도 창녕군 대지면 우포2로 1097", "lat": 35.5083094, "lng": 128.4931971, "name": "창녕소방서", "tel": "055-259-9212"},
{"addr": "경상남도 창원시 마산합포구 제2부두로 55", "lat": 35.1981124, "lng": 128.5747829, "name": "마산소방서", "tel": "055-249-9212"},
{"addr": "경상남도 진주시 동진로 249", "lat": 35.1803682, "lng": 128.1184401, "name": "진주소방서", "tel": "055-760-9212"},
{"addr": "경상남도 창원시 진해구 진해대로 1101", "lat": 35.1297556, "lng": 128.7373772, "name": "진해소방서", "tel": "055-548-9212"},
{"addr": "경상남도 창원시 의창구 상남로 165", "lat": 35.2028593, "lng": 128.6000923, "name": "창원소방서", "tel": "055-211-9212"},
{"addr": "경상남도 통영시 광도면 죽림4로 49", "lat": 34.8835497, "lng": 128.4190164, "name": "통영소방서", "tel": "055-640-9212"},
{"addr": "경상남도 함안군 가야읍 선왕길 59", "lat": 35.2909696, "lng": 128.4308338, "name": "함안소방서", "tel": "055-580-9212"},
{"addr": "경상남도 합천군 합천읍 인덕로 2453", "lat": 35.5661555, "lng": 128.1641819, "name": "합천소방서", "tel": "055-930-9212"}
],"2100":[
    {"addr": "제주특별자치도 서귀포시 서호남로 20(법환동)", "lat": 33.2496809, "lng": 126.513821, "name": "서귀포소방서", "tel": "064-730-7133"},
	{"addr": "제주특별자치도 서귀포시 성산읍 일주동로 4120번길 7", "lat": 33.4601969, "lng": 126.9098657, "name": "동부소방서", "tel": "064-780-9133"},
	{"addr": "제주특별자치도 제주시 한림읍 한림중앙로 150", "lat": 33.4025856, "lng": 126.2700909, "name": "서부소방서", "tel": "064-795-0134"},
{"addr": "제주특별자치도 제주시 중앙로 342(이도이동)", "lat": 33.4909396, "lng": 126.5366274, "name": "제주소방서", "tel": "064-729-0134"}
    ]}}
    